{
  "breweries": [
    {
      "id": "42-north-brewing-company-east-aurora",
      "name": "42 North Brewing Company",
      "brewery_type": "brewpub",
      "street": "25 Pine St",
      "address_2": null,
      "address_3": null,
      "city": "East Aurora",
      "state": "New York",
      "county_province": null,
      "postal_code": "14052-1827",
      "country": "United States",
      "longitude": "-78.607989",
      "latitude": "42.769311",
      "phone": "7168057500",
      "website_url": "http://www.42northbrewing.com",
      "updated_at": "2021-10-23T02:24:55.243Z",
      "created_at": "2021-10-23T02:24:55.243Z"
    },
    {
      "id": "actual-brewing-company-llc-columbus",
      "name": "Actual Brewing Company, LLC",
      "brewery_type": "micro",
      "street": "655 N James Rd",
      "address_2": null,
      "address_3": null,
      "city": "Columbus",
      "state": "Ohio",
      "county_province": null,
      "postal_code": "43219-1837",
      "country": "United States",
      "longitude": "-82.9080986",
      "latitude": "39.9868523",
      "phone": "6146363825",
      "website_url": "http://wwww.actualbeer.com",
      "updated_at": "2021-10-23T02:24:55.243Z",
      "created_at": "2021-10-23T02:24:55.243Z"
    },
    {
      "id": "4kd-crick-brewery-defiance",
      "name": "4kd Crick Brewery",
      "brewery_type": "brewpub",
      "street": "211 Carpenter Rd",
      "address_2": null,
      "address_3": null,
      "city": "Defiance",
      "state": "Ohio",
      "county_province": null,
      "postal_code": "43512-1718",
      "country": "United States",
      "longitude": "-84.341647",
      "latitude": "41.296252",
      "phone": "4199562863",
      "website_url": "http://Www.4kdcrickbrewery.com",
      "updated_at": "2021-10-23T02:24:55.243Z",
      "created_at": "2021-10-23T02:24:55.243Z"
    },
    {
      "id": "16-lots-brewing-mason",
      "name": "16 Lots Brewing",
      "brewery_type": "brewpub",
      "street": "753 Reading Rd",
      "address_2": null,
      "address_3": null,
      "city": "Mason",
      "state": "Ohio",
      "county_province": null,
      "postal_code": "45040-1303",
      "country": "United States",
      "longitude": "-84.3183801",
      "latitude": "39.3545967",
      "phone": "5134863672",
      "website_url": "http://www.16lots.com",
      "updated_at": "2021-10-23T02:24:55.243Z",
      "created_at": "2021-10-23T02:24:55.243Z"
    },
    {
      "id": "paradune-brewing-huntsville",
      "name": "Paradune Brewing",
      "brewery_type": "micro",
      "street": "10551 1/2 County Rd 286",
      "address_2": null,
      "address_3": null,
      "city": "Huntsville",
      "state": "Ohio",
      "county_province": null,
      "postal_code": "43324",
      "country": "United States",
      "longitude": null,
      "latitude": null,
      "phone": null,
      "website_url": null,
      "updated_at": "2021-10-23T02:24:55.243Z",
      "created_at": "2021-10-23T02:24:55.243Z"
    },
    {
      "id": "lockport-brewery-bolivar",
      "name": "Lockport Brewery",
      "brewery_type": "brewpub",
      "street": "10891 OH-212",
      "address_2": null,
      "address_3": null,
      "city": "Bolivar",
      "state": "Ohio",
      "county_province": null,
      "postal_code": "44612-8664",
      "country": "United States",
      "longitude": null,
      "latitude": null,
      "phone": "3308746037",
      "website_url": "http://www.lockportbeer.com",
      "updated_at": "2021-10-23T02:24:55.243Z",
      "created_at": "2021-10-23T02:24:55.243Z"
    },
    {
      "id": "13-below-brewery-cincinnati",
      "name": "13 Below Brewery",
      "brewery_type": "micro",
      "street": "7391 Forbes Rd",
      "address_2": null,
      "address_3": null,
      "city": "Cincinnati",
      "state": "Ohio",
      "county_province": null,
      "postal_code": "45233-1013",
      "country": "United States",
      "longitude": "-84.70634815",
      "latitude": "39.12639764",
      "phone": "5139750613",
      "website_url": "http://www.13belowbrewery.com",
      "updated_at": "2021-10-23T02:24:55.243Z",
      "created_at": "2021-10-23T02:24:55.243Z"
    },
    {
      "id": "2-tones-brewing-co-whitehall",
      "name": "2 Tones Brewing Co.",
      "brewery_type": "micro",
      "street": "4539 E Broad St",
      "address_2": null,
      "address_3": null,
      "city": "Whitehall",
      "state": "Ohio",
      "county_province": null,
      "postal_code": "43213-1308",
      "country": "United States",
      "longitude": "-82.9118174",
      "latitude": "40.0030689",
      "phone": null,
      "website_url": "http://www.2tonesbrewingco.com",
      "updated_at": "2021-10-23T02:24:55.243Z",
      "created_at": "2021-10-23T02:24:55.243Z"
    },
    {
      "id": "snow-belt-brew-chardon",
      "name": "Snow Belt Brew",
      "brewery_type": "micro",
      "street": "9511 Kile Rd",
      "address_2": null,
      "address_3": null,
      "city": "Chardon",
      "state": "Ohio",
      "county_province": null,
      "postal_code": "44024",
      "country": "United States",
      "longitude": null,
      "latitude": null,
      "phone": null,
      "website_url": null,
      "updated_at": "2021-10-23T02:24:55.243Z",
      "created_at": "2021-10-23T02:24:55.243Z"
    }
  ]
}